{"type": "FeatureCollection", "features": [{"id": "0", "type": "Feature", "properties": {"Address": "575 3rd St, Napa.", "City": "Napa", "Name": "Napa Expo", "Operator": "City of Napa"}, "geometry": {"type": "Point", "coordinates": [-122.277619470906, 38.2965341747037]}}, {"id": "1", "type": "Feature", "properties": {"Address": "2277 Napa Vallejo Hwy, Napa", "City": "Napa", "Name": "Napa Valley College", "Operator": "City of Napa"}, "geometry": {"type": "Point", "coordinates": [-122.275153655919, 38.2740637494075]}}, {"id": "2", "type": "Feature", "properties": {"Address": "1557 Healdsburg Ave.", "City": "Healdsburg", "Name": "Healdsburg Community Center", "Operator": "City of Healdsburg"}, "geometry": {"type": "Point", "coordinates": [-122.874208706483, 38.6331590945529]}}, {"id": "3", "type": "Feature", "properties": {"Address": "2590 First St, Napa", "City": "Napa", "Name": "Crosswalk Church (ok for Medically Fragile)", "Operator": "City of Napa"}, "geometry": {"type": "Point", "coordinates": [-122.304630058301, 38.3008896904757]}}, {"id": "4", "type": "Feature", "properties": {"Address": "1094 Petaluma Blvd S, Petaluma. 9495", "City": "Petaluma", "Name": "Petaluma Veterans Memorial Builidng", "Operator": "County HSD"}, "geometry": {"type": "Point", "coordinates": [-122.623569088989, 38.2268534854662]}}, {"id": "5", "type": "Feature", "properties": {"Address": "175 Fairgrounds Drive", "City": "Petaluma", "Name": "Petaluma Fairgrounds", "Operator": "American Red Cross"}, "geometry": {"type": "Point", "coordinates": [-122.6251, 38.22682]}}, {"id": "6", "type": "Feature", "properties": {"Address": "320 North McDowell Blvd.", "City": "Petaluma", "Name": "Petaluma Community Center", "Operator": "City of Petaluma"}, "geometry": {"type": "Point", "coordinates": [-122.6300042, 38.2516359]}}, {"id": "7", "type": "Feature", "properties": {"Address": "1315 Rand St, Petaluma. 94954", "City": "Petaluma", "Name": "New Life Church, Petaluma", "Operator": "Self"}, "geometry": {"type": "Point", "coordinates": [-122.6612991, 38.2662749]}}, {"id": "8", "type": "Feature", "properties": {"Address": "580 Sonoma Mountain Parkway,", "City": "Petaluma", "Name": "Baptist Church, Petaluma", "Operator": "Self"}, "geometry": {"type": "Point", "coordinates": [-122.636917114257, 38.2667236328125]}}, {"id": "9", "type": "Feature", "properties": {"Address": "2105 South McDowell", "City": "Petaluma", "Name": "Elks Lodge", "Operator": "Self"}, "geometry": {"type": "Point", "coordinates": [-122.5995373, 38.2319511]}}, {"id": "10", "type": "Feature", "properties": {"Address": "1995 South McDowell", "City": "Petaluma", "Name": "Calvary Chapel", "Operator": "Self"}, "geometry": {"type": "Point", "coordinates": [-122.591125488281, 38.2293663024902]}}, {"id": "11", "type": "Feature", "properties": {"Address": "1129 Industrial Ave #104", "City": "Petaluma", "Name": "Iglesia Cristiana", "Operator": "Self"}, "geometry": {"type": "Point", "coordinates": [-122.665458679199, 38.2653770446777]}}, {"id": "12", "type": "Feature", "properties": {"Address": "750 N. McDowell", "City": "Petaluma", "Name": "Muir Memory Care", "Operator": "Self"}, "geometry": {"type": "Point", "coordinates": [-122.642280578613, 38.2584953308105]}}, {"id": "13", "type": "Feature", "properties": {"Address": "939 B Street", "City": "Petaluma", "Name": "First Presbyterian Church", "Operator": "Self"}, "geometry": {"type": "Point", "coordinates": [-122.643142700195, 38.2269973754882]}}, {"id": "14", "type": "Feature", "properties": {"Address": "4501 Pleasanton Ave, Pleasanton.", "City": "Pleasanton", "Name": "Alameda Co Fairgrounds (Large animal shelter)", "Operator": "Alameda"}, "geometry": {"type": "Point", "coordinates": [-121.8885547, 37.6619911]}}, {"id": "15", "type": "Feature", "properties": {"Address": "1160 Exposition Blvd", "City": "Sacramento", "Name": "Sacramento Cal Expo", "Operator": "Self"}, "geometry": {"type": "Point", "coordinates": [-121.433295, 38.589903]}}, {"id": "16", "type": "Feature", "properties": {"Address": "1111 Gough St.", "City": "San Francisco", "Name": "St. Mary's Cathedral", "Operator": "Self"}, "geometry": {"type": "Point", "coordinates": [-122.424614, 37.784455]}}, {"id": "17", "type": "Feature", "properties": {"Address": "10 Avenue of the Flags, San Rafael.", "City": "San Rafael", "Name": "Marin Fairgrounds", "Operator": "American Red Cross"}, "geometry": {"type": "Point", "coordinates": [-122.5335691, 38.0023822]}}, {"id": "18", "type": "Feature", "properties": {"Address": "1350 Bennet Valley Rd", "City": "Santa Rosa", "Name": "Sonoma County Fairgrounds Finley Hall/Grace", "Operator": "American Red Cross"}, "geometry": {"type": "Point", "coordinates": [-122.7013279, 38.4323083]}}, {"id": "19", "type": "Feature", "properties": {"Address": "1351 Maple Ave.", "City": "Santa Rosa", "Name": "Santa Rosa Veterans Memorial Building", "Operator": "American Red Cross"}, "geometry": {"type": "Point", "coordinates": [-122.7010868, 38.4341348]}}, {"id": "20", "type": "Feature", "properties": {"Address": "126 St  W. Sonoma. 95476", "City": "Sonoma", "Name": "Sonoma Vets", "Operator": "City of Sonoma"}, "geometry": {"type": "Point", "coordinates": [-122.4573998, 38.2984411]}}]}